[{"id":58,"name":"Cooper Landing Brewing Company, LLC.","brewery_type":"micro","street":"","city":"Cooper Landing","state":"Alaska","postal_code":"99572","country":"United States","longitude":"-149.847849500835","latitude":"60.4952185","phone":"9072236101","website_url":"http://www.cooperlandingbrewing.com","updated_at":"2018-08-23T23:20:42.968Z","tag_list":[]},{"id":498,"name":"Cooperage Brewing Co.","brewery_type":"micro","street":"981 Airway Ct Ste G","city":"Santa Rosa","state":"California","postal_code":"95403-2049","country":"United States","longitude":null,"latitude":null,"phone":"7072939787","website_url":"http://www.cooperagebrewing.com","updated_at":"2018-08-11T21:35:59.969Z","tag_list":[]},{"id":1311,"name":"CooperSmiths Pub and Brewing","brewery_type":"brewpub","street":"5 Old Town Sq","city":"Fort Collins","state":"Colorado","postal_code":"80524-2446","country":"United States","longitude":"-105.0755188","latitude":"40.5873784","phone":"9704980483","website_url":"http://www.coopersmithspub.com","updated_at":"2018-08-24T00:22:39.241Z","tag_list":[]},{"id":2185,"name":"Rick Tanner's Grille \u0026 Bar/Cherry Street Brewing Cooperative","brewery_type":"brewpub","street":"5810 Bond St # E-2","city":"Cumming","state":"Georgia","postal_code":"30040-0301","country":"United States","longitude":null,"latitude":null,"phone":"7702055512","website_url":"http://www.rtanners.com","updated_at":"2018-08-11T21:37:03.329Z","tag_list":[]},{"id":3208,"name":"3cross Fermentation Cooperative","brewery_type":"micro","street":"4 Knowlton Ave","city":"Worcester","state":"Massachusetts","postal_code":"01603","country":"United States","longitude":"-71.8305759340224","latitude":"42.2436487455576","phone":"5086158195","website_url":"http://www.3cross.coop","updated_at":"2018-08-24T00:40:56.595Z","tag_list":[]},{"id":3809,"name":"Broken Clock Brewing Cooperative","brewery_type":"micro","street":"3134 California St NE Ste 122","city":"Minneapolis","state":"Minnesota","postal_code":"55418-1789","country":"United States","longitude":null,"latitude":null,"phone":"9703330135","website_url":"http://www.brokenclockbrew.com","updated_at":"2018-08-11T21:38:00.817Z","tag_list":[]},{"id":3827,"name":"Fair State Brewing Cooperative","brewery_type":"micro","street":"2506A Central Ave NE","city":"Minneapolis","state":"Minnesota","postal_code":"55418","country":"United States","longitude":"-93.247453","latitude":"45.0133791428571","phone":"6124443209","website_url":"http://www.fairstate.coop","updated_at":"2018-08-24T00:45:08.249Z","tag_list":[]},{"id":3828,"name":"Fair State Brewing Cooperative - St. Paul","brewery_type":"micro","street":"2075 Ellis Ave","city":"Saint Paul","state":"Minnesota","postal_code":"55114-1308","country":"United States","longitude":"-93.1882212916667","latitude":"44.966033875","phone":"6124443209","website_url":"","updated_at":"2018-08-24T00:45:08.741Z","tag_list":[]},{"id":4674,"name":"Coopers Cave Ale Co","brewery_type":"brewpub","street":"2 Sagamore St","city":"Glens Falls","state":"New York","postal_code":"12801-3179","country":"United States","longitude":"-73.6399437","latitude":"43.3177399","phone":"5187920007","website_url":"http://www.cooperscaveale.com","updated_at":"2018-08-24T15:38:33.830Z","tag_list":[]},{"id":4675,"name":"Cooperstown Brewing Co","brewery_type":"proprietor","street":"41 Browne St.","city":"Oneonta","state":"New York","postal_code":"13820","country":"United States","longitude":"-75.1094240504556","latitude":"42.4511858633909","phone":"","website_url":"","updated_at":"2018-08-24T15:38:34.490Z","tag_list":[]},{"id":5773,"name":"Cooper Mountain Ale Works","brewery_type":"micro","street":"15855 SW Kestrel Ct","city":"Beaverton","state":"Oregon","postal_code":"97007-9200","country":"United States","longitude":"-122.840033324208","latitude":"45.4314259","phone":"5035807175","website_url":"http://www.coopermountainaleworks.com","updated_at":"2018-08-24T15:46:15.449Z","tag_list":[]},{"id":6393,"name":"Cooper River Brewing Company","brewery_type":"micro","street":"2201-B Mechanic St","city":"Charleston","state":"South Carolina","postal_code":"29405","country":"United States","longitude":"-79.954817","latitude":"32.817102","phone":"8434057979","website_url":"http://www.cooperriverbrewing.com","updated_at":"2018-08-24T16:14:26.111Z","tag_list":[]},{"id":6600,"name":"4th Tap Brewing Cooperative","brewery_type":"micro","street":"10615 Metric Blvd","city":"Austin","state":"Texas","postal_code":"78758-4520","country":"United States","longitude":"-97.7118913","latitude":"30.3852024","phone":"5129089817","website_url":"","updated_at":"2018-08-24T16:18:23.635Z","tag_list":[]},{"id":6998,"name":"Utah Brewers Cooperative","brewery_type":"regional","street":"1735 S 300 W","city":"Salt Lake City","state":"Utah","postal_code":"84115-1802","country":"United States","longitude":"-111.899319900472","latitude":"40.73267145","phone":"8014668855","website_url":"http://www.wasatchbeers.com","updated_at":"2018-08-24T16:25:19.518Z","tag_list":[]},{"id":7465,"name":"Flying Bike Cooperative Brewery","brewery_type":"micro","street":"8570 Greenwood Ave N","city":"Seattle","state":"Washington","postal_code":"98103-3614","country":"United States","longitude":"-122.3550721","latitude":"47.6920561","phone":"2064287709","website_url":"http://www.flyingbike.coop","updated_at":"2018-08-24T16:34:51.311Z","tag_list":[]},{"id":7900,"name":"New Barons Brewing Cooperative","brewery_type":"planning","street":"","city":"Milwaukee","state":"Wisconsin","postal_code":"53202-2821","country":"United States","longitude":null,"latitude":null,"phone":"3147050016","website_url":"http://www.newbaronsbrewing.com","updated_at":"2018-08-11T21:40:34.683Z","tag_list":[]}]