[{"id":5361,"name":"BottleHouse Brewery","brewery_type":"micro","street":"13368 Madison Ave","city":"Lakewood","state":"Ohio","postal_code":"44107-4840","country":"United States","longitude":"-81.7844570504357","latitude":"41.47721765","phone":"2162142120","website_url":"http://www.thebottlehousebrewingcompany.com","updated_at":"2018-08-24T15:43:28.982Z","tag_list":[]},{"id":5387,"name":"Buckeye Beer Engine","brewery_type":"brewpub","street":"15315 Madison Ave","city":"Lakewood","state":"Ohio","postal_code":"44107-4020","country":"United States","longitude":"-81.803918","latitude":"41.477245","phone":"2162262337","website_url":"http://www.buckeyebeerengine.com","updated_at":"2018-08-24T15:43:33.862Z","tag_list":[]},{"id":5544,"name":"Pedestrian Brewing","brewery_type":"planning","street":"","city":"Lakewood","state":"Ohio","postal_code":"44107-3309","country":"United States","longitude":null,"latitude":null,"phone":"2162620740","website_url":"http://pedestrian.beer","updated_at":"2018-08-11T21:39:02.874Z","tag_list":[]}]