[{"id":5351,"name":"Barley's Brewing Company (Ale House No. 1)","brewery_type":"brewpub","street":"467 N High St","city":"Columbus","state":"Ohio","postal_code":"43215-2007","country":"United States","longitude":"-83.0027669","latitude":"39.9719408","phone":"6142282537","website_url":"http://www.barleysbrewing.com","updated_at":"2018-08-24T15:43:25.107Z","tag_list":[]},{"id":5383,"name":"Brick and Barrel","brewery_type":"micro","street":"1844 Columbus Rd","city":"Cleveland","state":"Ohio","postal_code":"44113-2412","country":"United States","longitude":"-81.7008861","latitude":"41.4895629","phone":"5039270629","website_url":"http://www.brickandbarrelbrewing.com","updated_at":"2018-08-24T15:43:32.373Z","tag_list":[]},{"id":5394,"name":"Christian Moerlein Brewing Co","brewery_type":"regional","street":"1621 Moore St","city":"Cincinnati","state":"Ohio","postal_code":"45202-6438","country":"United States","longitude":"-84.5153343213929","latitude":"39.113225087534","phone":"5138276025","website_url":"http://www.christianmoerlein.com","updated_at":"2018-08-24T15:43:37.274Z","tag_list":[]},{"id":5408,"name":"Dayton Beer Co Production Brewery \u0026 Bierhall","brewery_type":"micro","street":"41 Madison St","city":"Dayton","state":"Ohio","postal_code":"45402-2105","country":"United States","longitude":"-84.1852886764706","latitude":"39.7622667647059","phone":"9372282337","website_url":"http://www.thedaytonbeerco.com","updated_at":"2018-08-24T15:43:43.518Z","tag_list":[]},{"id":5426,"name":"Father John's Microbrewery","brewery_type":"brewpub","street":"301 W Butler St","city":"Bryan","state":"Ohio","postal_code":"43506-1608","country":"United States","longitude":"-84.553828","latitude":"41.473192","phone":"4196331313","website_url":"http://www.fatherjohnsbrewery.com","updated_at":"2018-08-24T15:43:50.829Z","tag_list":[]},{"id":5427,"name":"Fibonacci Brewing Company","brewery_type":"micro","street":"1445 Compton Rd","city":"Cincinnati","state":"Ohio","postal_code":"45231-3559","country":"United States","longitude":"-84.4805528","latitude":"39.218908","phone":"5138321422","website_url":"http://fibbrew.com","updated_at":"2018-08-24T15:43:51.294Z","tag_list":[]},{"id":5445,"name":"Granville Brewing Company","brewery_type":"micro","street":"5371 Columbus Rd","city":"Granville","state":"Ohio","postal_code":"43023-9192","country":"United States","longitude":"-82.5886160260201","latitude":"40.0352737879005","phone":"","website_url":"http://www.granvillewbrewing.com","updated_at":"2018-08-24T15:43:59.706Z","tag_list":[]},{"id":5458,"name":"Hofbrauhaus Cleveland / Cincinatti Restaurant Group","brewery_type":"brewpub","street":"1550 Chester Ave","city":"Cleveland","state":"Ohio","postal_code":"44114-3615","country":"United States","longitude":"-81.6811534444444","latitude":"41.5031089191919","phone":"2166212337","website_url":"http://www.hofbrauhauscleveland.com","updated_at":"2018-08-24T15:44:06.085Z","tag_list":[]},{"id":5474,"name":"Knotty Pine Brewing","brewery_type":"brewpub","street":"1765 W 3rd Ave","city":"Columbus","state":"Ohio","postal_code":"43212-2769","country":"United States","longitude":"-83.0529324","latitude":"39.9852813","phone":"6148171515","website_url":"http://www.knottypinebrewing.net","updated_at":"2018-08-24T15:44:14.258Z","tag_list":[]},{"id":5477,"name":"Lake Rat Brewing","brewery_type":"brewpub","street":"108 S Main St","city":"Celina","state":"Ohio","postal_code":"45822","country":"United States","longitude":"-84.5706936734694","latitude":"40.5482005714286","phone":"4197331830","website_url":"http://www.lakeratbrewing.com","updated_at":"2018-08-24T15:44:15.711Z","tag_list":[]},{"id":5496,"name":"Magic City Brewing Company","brewery_type":"micro","street":"161 2nd St NW","city":"Barberton","state":"Ohio","postal_code":"44203","country":"United States","longitude":"-81.6073882927244","latitude":"41.0144467231506","phone":"3307039806","website_url":"http://Www.magiccitybrewingcompany.com","updated_at":"2018-08-24T15:44:23.362Z","tag_list":[]},{"id":5513,"name":"Moerlein Lager House","brewery_type":"brewpub","street":"115 Joe Nuxhall Way","city":"Cincinnati","state":"Ohio","postal_code":"45202-4143","country":"United States","longitude":"-84.5087167704914","latitude":"39.09630095","phone":"5134212337","website_url":"http://www.moerleinlagerhouse.com","updated_at":"2018-08-24T15:44:30.805Z","tag_list":[]},{"id":5521,"name":"Muskellunge Brewing Company","brewery_type":"micro","street":"425 5th St NW","city":"Canton","state":"Ohio","postal_code":"44702","country":"United States","longitude":"-81.3767243265306","latitude":"40.8019184081633","phone":"","website_url":"http://www.muskybrewco.com","updated_at":"2018-08-24T15:44:34.180Z","tag_list":[]},{"id":5522,"name":"Nano Brew Cleveland","brewery_type":"brewpub","street":"1859 W 25th St","city":"Cleveland","state":"Ohio","postal_code":"44113","country":"United States","longitude":"-81.7045531","latitude":"41.4860486","phone":"2168626631","website_url":"http://www.nanobrewcleveland.com","updated_at":"2018-08-24T15:44:34.666Z","tag_list":[]},{"id":5540,"name":"Paradigm Shift Brewing","brewery_type":"micro","street":"128 North Ave NE","city":"Massillon","state":"Ohio","postal_code":"44646-5526","country":"United States","longitude":"-81.5218392857143","latitude":"40.7986581428571","phone":"3308800008","website_url":"http://www.paradigmshiftbrew.com","updated_at":"2018-08-24T15:44:40.762Z","tag_list":[]},{"id":5562,"name":"Random Precision Brewing Company","brewery_type":"micro","street":"2365 W Dublin Granville Rd","city":"Columbus","state":"Ohio","postal_code":"43235-2700","country":"United States","longitude":"-83.05232","latitude":"40.090144","phone":"6143893864","website_url":"http://www.randomprecisionbrewing.com","updated_at":"2018-08-24T15:44:50.093Z","tag_list":[]},{"id":5568,"name":"Rivals Sports Grille","brewery_type":"contract","street":"6710 Smith Rd","city":"Middleburg Heights","state":"Ohio","postal_code":"44130-2656","country":"United States","longitude":"-81.8043347217913","latitude":"41.3853154944618","phone":"2162670005","website_url":"http://www.rivalscleveland.com","updated_at":"2018-08-24T15:44:52.006Z","tag_list":[]},{"id":5572,"name":"Rocky River Brewing Co","brewery_type":"brewpub","street":"21290 Center Ridge Rd","city":"Rocky River","state":"Ohio","postal_code":"44116-3204","country":"United States","longitude":"-81.8553198004012","latitude":"41.4610006539348","phone":"4408952739","website_url":"http://www.rockyriverbrewco.com","updated_at":"2018-08-24T15:44:53.919Z","tag_list":[]},{"id":5579,"name":"Sandy Springs Brewing Company","brewery_type":"brewpub","street":"232 N Market St","city":"Minerva","state":"Ohio","postal_code":"44657-1616","country":"United States","longitude":"-81.1038201428571","latitude":"40.7295667857143","phone":"3304516926","website_url":"http://www.sandyspringsbrewery.com","updated_at":"2018-08-24T15:44:56.171Z","tag_list":[]},{"id":5597,"name":"Swine City Brewing Company","brewery_type":"micro","street":"4614 Industry Dr","city":"Fairfield","state":"Ohio","postal_code":"45014-1923","country":"United States","longitude":"-84.5310617847279","latitude":"39.3489541799819","phone":"7045601214","website_url":"http://www.swinecitybrewing.com","updated_at":"2018-08-24T15:45:02.739Z","tag_list":[]}]