[{"id":3688,"name":"Sherwood Brewing Co","brewery_type":"brewpub","street":"45689 Hayes Rd","city":"Shelby Township","state":"Michigan","postal_code":"48315-6214","country":"United States","longitude":"-82.9736141428571","latitude":"42.6320201428571","phone":"5865329669","website_url":"http://www.sherwoodbrewing.com","updated_at":"2018-08-24T00:44:07.869Z","tag_list":[]},{"id":3689,"name":"Shipwreck Brewing Company","brewery_type":"brewpub","street":"24409 Jefferson Ave","city":"Saint Clair Shores","state":"Michigan","postal_code":"48080-1318","country":"United States","longitude":"-82.8887785856805","latitude":"42.4712223090048","phone":"5869442266","website_url":"http://www.shipwreckbrewingcompany.com","updated_at":"2018-08-24T00:44:08.299Z","tag_list":[]},{"id":3710,"name":"Tapistry Brewing Company","brewery_type":"micro","street":"4236 Lake St","city":"Bridgman","state":"Michigan","postal_code":"49106-9109","country":"United States","longitude":"-86.5561575","latitude":"41.9427559","phone":"2692667349","website_url":"http://www.tapistrybrewing.com","updated_at":"2018-08-24T00:44:18.183Z","tag_list":[]},{"id":3712,"name":"Tecumseh Brewing Company","brewery_type":"brewpub","street":"128 W Chicago Blvd","city":"Tecumseh","state":"Michigan","postal_code":"49286-1553","country":"United States","longitude":"-83.946191","latitude":"42.004052","phone":"5178151726","website_url":"http://www.tecumsehbrewingco.com","updated_at":"2018-08-24T00:44:19.242Z","tag_list":[]},{"id":3724,"name":"The Mitten Brewing Co","brewery_type":"brewpub","street":"527 Leonard St NW","city":"Grand Rapids","state":"Michigan","postal_code":"49504-4278","country":"United States","longitude":"-85.68101","latitude":"42.9850773333333","phone":"6166085612","website_url":"http://www.mittenbrewing.com","updated_at":"2018-08-24T00:44:24.797Z","tag_list":[]},{"id":3742,"name":"Tripelroot","brewery_type":"brewpub","street":"146 E Main Ave","city":"Zeeland","state":"Michigan","postal_code":"49464-1736","country":"United States","longitude":"-86.0146348246228","latitude":"42.81211765","phone":"6169530050","website_url":"http://www.tripelroot.com","updated_at":"2018-08-24T00:44:32.320Z","tag_list":[]},{"id":3755,"name":"Walldorff Brewpub \u0026 Bistro","brewery_type":"brewpub","street":"105 E State St","city":"Hastings","state":"Michigan","postal_code":"49058-1808","country":"United States","longitude":"-85.284584","latitude":"42.6487487","phone":"2699454400","website_url":"http://www.walldorffbrewpub.com","updated_at":"2018-08-24T00:44:38.945Z","tag_list":[]},{"id":3757,"name":"Watermark Brewing Company","brewery_type":"micro","street":"5781 Saint Joseph Ave","city":"Stevensville","state":"Michigan","postal_code":"49127-1238","country":"United States","longitude":"-86.51963025","latitude":"42.0128666818182","phone":"2692810872","website_url":"http://www.watermarkbrewing.com","updated_at":"2018-08-24T00:44:40.161Z","tag_list":[]},{"id":3762,"name":"Witch's Hat Brewing","brewery_type":"micro","street":"601 S Lafayette St","city":"South Lyon","state":"Michigan","postal_code":"48178-1453","country":"United States","longitude":"-83.6509930768823","latitude":"42.4554252170515","phone":"2484862595","website_url":"http://www.witchshatbrewing.com","updated_at":"2018-08-24T00:44:41.305Z","tag_list":[]},{"id":3785,"name":"Barrel Theory Beer Company","brewery_type":"micro","street":"248 7th St E","city":"Saint Paul","state":"Minnesota","postal_code":"55101-2349","country":"United States","longitude":"-93.0880348205128","latitude":"44.9510655128205","phone":"6516003422","website_url":"http://www.barreltheory.com","updated_at":"2018-08-24T00:44:51.098Z","tag_list":[]},{"id":3802,"name":"BoomTown Brewery and Woodfire Grill","brewery_type":"brewpub","street":"531 E Howard St","city":"Hibbing","state":"Minnesota","postal_code":"55746-1713","country":"United States","longitude":"-92.9355964","latitude":"47.4276931","phone":"2184401710","website_url":"http://www.boomtownwoodfire.com","updated_at":"2018-08-24T00:44:58.216Z","tag_list":[]},{"id":3812,"name":"Carmody Irish Pub \u0026 Brewing","brewery_type":"brewpub","street":"308 E Superior St","city":"Duluth","state":"Minnesota","postal_code":"55802-2120","country":"United States","longitude":"-92.0941880943814","latitude":"46.7898679947981","phone":"2187404747","website_url":"http://www.carmodyirishpub.com","updated_at":"2018-08-24T00:45:00.853Z","tag_list":[]},{"id":584,"name":"Falls Canyon Brewing Co.","brewery_type":"planning","street":"","city":null,"state":null,"postal_code":null,"country":"United States","longitude":null,"latitude":null,"phone":"","website_url":"","updated_at":"2018-07-24T01:32:55.260Z","tag_list":[]},{"id":561,"name":"Eel River Brewing Co - Facility and Warehouse","brewery_type":"micro","street":"600 K Bridge St","city":"Scotia","state":"California","postal_code":"95565","country":"United States","longitude":null,"latitude":null,"phone":"7077641772","website_url":"","updated_at":"2018-08-11T21:36:02.426Z","tag_list":[]},{"id":3832,"name":"Forager Brewing Company","brewery_type":"brewpub","street":"1005 6th St NW","city":"Rochester","state":"Minnesota","postal_code":"55901-2741","country":"United States","longitude":"-92.4786810104941","latitude":"44.0293769630614","phone":"5072587490","website_url":"http://www.foragerbrewery.com","updated_at":"2018-08-24T00:45:10.895Z","tag_list":[]},{"id":3850,"name":"Gull Dam Brewing, Inc.","brewery_type":"micro","street":"23836 Smiley Rd","city":"Nisswa","state":"Minnesota","postal_code":"56468","country":"United States","longitude":"-94.2976626608308","latitude":"46.4983497833438","phone":"2189632739","website_url":"http://www.gulldambrewing.com","updated_at":"2018-08-24T00:45:18.433Z","tag_list":[]},{"id":3852,"name":"HammerHeart Brewing Company","brewery_type":"micro","street":"7785 Lake Dr","city":"Lino Lakes","state":"Minnesota","postal_code":"55014-1109","country":"United States","longitude":"-93.1064135","latitude":"45.1890903","phone":"6513482654","website_url":"http://www.hammerheartbrewing.com","updated_at":"2018-08-24T00:45:19.341Z","tag_list":[]},{"id":3875,"name":"Lakes \u0026 Legends Brewing Company","brewery_type":"micro","street":"1368 Lasalle Ave","city":"Minneapolis","state":"Minnesota","postal_code":"55403-2316","country":"United States","longitude":"-93.2794629","latitude":"44.9689387","phone":"6129996020","website_url":"http://www.lakesandlegends.com","updated_at":"2018-08-24T00:45:28.880Z","tag_list":[]},{"id":3894,"name":"Nutmeg Brewhouse","brewery_type":"brewpub","street":"1905 County Road 42 W","city":"Burnsville","state":"Minnesota","postal_code":"55306-6211","country":"United States","longitude":"-93.3054737692308","latitude":"44.7463634615385","phone":"9528921438","website_url":"http://www.nutmegbrewhouse.com","updated_at":"2018-08-24T00:45:37.098Z","tag_list":[]},{"id":3896,"name":"OMNI Brewing Company","brewery_type":"micro","street":"9462 Deerwood Ln N","city":"Maple Grove","state":"Minnesota","postal_code":"55369-3629","country":"United States","longitude":"-93.4258984285714","latitude":"45.1260514285714","phone":"7152229832","website_url":"","updated_at":"2018-08-24T00:45:37.980Z","tag_list":[]}]
