[{"id":5643,"name":"Willoughby Brewing Co","brewery_type":"brewpub","street":"4057 Erie St","city":"Willoughby","state":"Ohio","postal_code":"44094-7804","country":"United States","longitude":"-81.4054897216877","latitude":"41.64152155","phone":"4409750202","website_url":"http://www.willoughbybrewing.com","updated_at":"2018-08-24T15:45:22.591Z","tag_list":[]},{"id":5637,"name":"Weasel Boy Brewing Co  LLC","brewery_type":"brewpub","street":"126 Muskingum Ave Unit E","city":"Zanesville","state":"Ohio","postal_code":"43701-4921","country":"United States","longitude":null,"latitude":null,"phone":"7404553767","website_url":"http://www.weaselboybrewing.com","updated_at":"2018-08-11T21:39:06.789Z","tag_list":[]},{"id":5634,"name":"Wadsworth Brewing Company","brewery_type":"brewpub","street":"126 Main St","city":"Wadsworth","state":"Ohio","postal_code":"44281-1432","country":"United States","longitude":"-81.7298028773239","latitude":"41.0247866061802","phone":"3304754935","website_url":"http://www.wadsworthbrewingcompany.com","updated_at":"2018-08-24T15:45:18.522Z","tag_list":[]},{"id":5631,"name":"Valley Vineyards Winery \u0026 Cellar Dweller Brewing","brewery_type":"brewpub","street":"2276 E US Highway 22 and 3","city":"Morrow","state":"Ohio","postal_code":"45152-9414","country":"United States","longitude":null,"latitude":null,"phone":"5138992485","website_url":"http://www.valleyvineyards.com","updated_at":"2018-08-11T21:39:06.572Z","tag_list":[]},{"id":5629,"name":"Upside Brewing","brewery_type":"brewpub","street":"5692 N Main St","city":"Sylvania","state":"Ohio","postal_code":"43560-1928","country":"United States","longitude":null,"latitude":null,"phone":"4198826061","website_url":"http://www.facebook.com/UpsideBrewing","updated_at":"2018-08-11T21:39:06.493Z","tag_list":[]},{"id":5628,"name":"Uniontown Brewing Co.","brewery_type":"brewpub","street":"105 W Main St","city":"Ashland","state":"Ohio","postal_code":"44805-2221","country":"United States","longitude":"-82.3163893181818","latitude":"40.8686237954545","phone":"4199088542","website_url":"http://www.uniontownbrewing.com","updated_at":"2018-08-24T15:45:15.959Z","tag_list":[]},{"id":5626,"name":"Two Bandits Brewing Company","brewery_type":"brewpub","street":"106 E High St","city":"Hicksville","state":"Ohio","postal_code":"43526","country":"United States","longitude":"-84.7617010816327","latitude":"41.2936116326531","phone":"4195421087","website_url":"","updated_at":"2018-08-24T15:45:14.982Z","tag_list":[]},{"id":5625,"name":"Twin Oast Brewing","brewery_type":"brewpub","street":"3630 NE Catawba Rd","city":"Catawba Island","state":"Ohio","postal_code":"43452","country":"United States","longitude":"-82.832581","latitude":"41.578044","phone":"4195736126","website_url":"http://www.twinoast.com","updated_at":"2018-08-24T15:45:14.451Z","tag_list":[]},{"id":5624,"name":"TwentyNine Brewpub","brewery_type":"brewpub","street":"1775 Marion-Waldo Rd","city":"Marion","state":"Ohio","postal_code":"43302","country":"United States","longitude":"-83.1163532990739","latitude":"40.5550920372396","phone":"7407514586","website_url":"","updated_at":"2018-08-24T15:45:13.926Z","tag_list":[]},{"id":5622,"name":"Toxic Brew Company","brewery_type":"brewpub","street":"431 E 5th St","city":"Dayton","state":"Ohio","postal_code":"45402-2911","country":"United States","longitude":"-84.1843655035001","latitude":"39.7572488739183","phone":"9379853618","website_url":"http://www.toxicbrewcompany.com","updated_at":"2018-08-24T15:45:13.057Z","tag_list":[]},{"id":5621,"name":"Three Tigers Brewing Company","brewery_type":"brewpub","street":"140 N Prospect St","city":"Granville","state":"Ohio","postal_code":"43023-1337","country":"United States","longitude":"-82.5182671257866","latitude":"40.0683988595088","phone":"7409204680","website_url":"http://www.threetigersbrewing.com","updated_at":"2018-08-24T15:45:12.602Z","tag_list":[]},{"id":5614,"name":"The Lodge Restaurant \u0026 Microbrewery","brewery_type":"brewpub","street":"29042 Hide AWay Hills Rd","city":"Sugar Grove","state":"Ohio","postal_code":"43155","country":"United States","longitude":null,"latitude":null,"phone":"7405697944","website_url":"http://www.hideawayhillslodge.com","updated_at":"2018-08-11T21:39:05.797Z","tag_list":[]},{"id":5612,"name":"The Jolly Scholar","brewery_type":"brewpub","street":"11111 Euclid Ave","city":"Cleveland","state":"Ohio","postal_code":"44106-1715","country":"United States","longitude":"-81.6083649792596","latitude":"41.5074076","phone":"2163680090","website_url":"http://www.thejollyscholar.com","updated_at":"2018-08-24T15:45:08.800Z","tag_list":[]},{"id":5609,"name":"The Brick Oven Brewpub","brewery_type":"brewpub","street":"604 Canton Rd","city":"Akron","state":"Ohio","postal_code":"44312-2513","country":"United States","longitude":"-81.4373419398895","latitude":"41.0471953371375","phone":"3304757005","website_url":"http://www.thebrickovenbrewpub.com","updated_at":"2018-08-24T15:45:07.804Z","tag_list":[]},{"id":5607,"name":"The Brew Kettle, Taproom and Smokehouse","brewery_type":"brewpub","street":"8377 Pearl Rd","city":"Strongsville","state":"Ohio","postal_code":"44136-1637","country":"United States","longitude":"-81.8224061","latitude":"41.3471323","phone":"4402398788","website_url":"http://www.thebrewkettle.com","updated_at":"2018-08-24T15:45:06.933Z","tag_list":[]},{"id":5606,"name":"The Brew Brothers / Scioto Downs Racino","brewery_type":"brewpub","street":"6000 S. High Street","city":"Columbus","state":"Ohio","postal_code":"43207","country":"United States","longitude":"-82.995426","latitude":"39.922819","phone":"","website_url":"","updated_at":"2018-08-24T15:45:06.485Z","tag_list":[]},{"id":5602,"name":"Temperance Row Brewing and Uptown Deli","brewery_type":"brewpub","street":"41 N State St","city":"Westerville","state":"Ohio","postal_code":"43081-2123","country":"United States","longitude":"-82.9280656410251","latitude":"40.1149313497525","phone":"6148912337","website_url":"http://www.uptowndeliandbrew.com","updated_at":"2018-08-24T15:45:05.109Z","tag_list":[]},{"id":5601,"name":"Tap and Screw Brewery","brewery_type":"brewpub","street":"4721 Red Bank Rd","city":"Cincinnati","state":"Ohio","postal_code":"45277","country":"United States","longitude":"-84.4043431560687","latitude":"39.158691","phone":"5134511763","website_url":"http://www.tapandscrew.com","updated_at":"2018-08-24T15:45:04.576Z","tag_list":[]},{"id":5599,"name":"Taft's Brewing Co","brewery_type":"brewpub","street":"4831 Spring Grove Ave","city":"Cincinnati","state":"Ohio","postal_code":"45232-1938","country":"United States","longitude":"-84.5127071","latitude":"39.1681213","phone":"5138535016","website_url":"","updated_at":"2018-08-24T15:45:03.661Z","tag_list":[]},{"id":5591,"name":"Southside Brewing Co","brewery_type":"brewpub","street":"62920 Georgetown Rd","city":"Cambridge","state":"Ohio","postal_code":"43725-9749","country":"United States","longitude":null,"latitude":null,"phone":"7404353222","website_url":"http://www.southsidebrewing.net","updated_at":"2018-08-11T21:39:04.667Z","tag_list":[]}]